City_ID,City,Country,Lat,Lng,Max Temp,Humidity,Cloudiness,Wind Speed,Current Description,Date
0,New Norfolk,AU,-42.7826,147.0587,44.01,89,99,1.01,light rain,2022-08-10 22:45
1,Punta Arenas,CL,-53.15,-70.9167,50,66,75,14.97,broken clouds,2022-08-10 22:45
2,Mataura,NZ,-46.1927,168.8643,62.01,86,63,1.99,broken clouds,2022-08-10 22:45
3,Hirara,JP,24.8,125.2833,71.6,88,40,12.66,scattered clouds,2022-08-10 22:45
4,Pergamino,AR,-33.89,-60.5736,68,99,100,1.01,light rain,2022-08-10 22:45
5,Eydhafushi,MV,5.1033,73.0708,82.71,71,3,7.14,clear sky,2022-08-10 22:45
6,Airai,TL,-8.9266,125.4092,62.94,75,90,1.5,overcast clouds,2022-08-10 22:45
7,Tasiilaq,GL,65.6145,-37.6368,33.8,51,2,1.14,clear sky,2022-08-10 22:45
8,Puerto Ayora,EC,-0.7393,-90.3518,78.8,83,20,5.75,light rain,2022-08-10 22:45
9,Deputatskiy,RU,69.3,139.9,-10.35,86,10,2.93,clear sky,2022-08-10 22:45
10,Ushuaia,AR,-54.8,-68.3,50,66,40,4.61,scattered clouds,2022-08-10 22:41
11,Lagoa,PT,39.05,-27.9833,59.59,94,100,20.49,overcast clouds,2022-08-10 22:35
12,Ponta Do Sol,PT,32.6667,-17.1,61,73,93,1.01,overcast clouds,2022-08-10 22:45
13,Busselton,AU,-33.65,115.3333,60.01,87,100,1.01,light rain,2022-08-10 22:45
14,Freeport,US,40.6576,-73.5832,62.01,77,1,9.22,clear sky,2022-08-10 22:42
15,Hasaki,JP,35.7333,140.8333,51.8,71,20,6.91,few clouds,2022-08-10 22:45
16,Cape Town,ZA,-33.9258,18.4232,64,88,0,9.22,clear sky,2022-08-10 22:43
17,Grand Gaube,MU,-20.0064,57.6608,80.01,74,98,5.99,overcast clouds,2022-08-10 22:33
18,Codrington,AU,-38.2667,141.9667,52.48,64,100,21.88,overcast clouds,2022-08-10 22:35
19,Hithadhoo,MV,-0.6,73.0833,83.32,69,56,12.88,broken clouds,2022-08-10 22:45
20,Ribeira Grande,PT,38.5167,-28.7,62.1,90,100,15.39,overcast clouds,2022-08-10 22:45
21,Rikitea,PF,-23.1203,-134.9692,78.96,71,0,9.33,clear sky,2022-08-10 22:45
22,Juegang,CN,32.3174,121.1855,55.99,86,100,15.3,overcast clouds,2022-08-10 22:45
23,Tura,IN,25.5198,90.2201,71.56,71,0,3.76,clear sky,2022-08-10 22:45
24,Vila Velha,BR,-20.3297,-40.2925,77,73,20,5.75,few clouds,2022-08-10 22:35
25,Kyshtovka,RU,56.555,76.6271,32.52,91,100,3.58,overcast clouds,2022-08-10 22:45
26,Santa Monica,US,34.0195,-118.4912,73.4,52,1,8.05,clear sky,2022-08-10 22:40
27,Port Blair,IN,11.6667,92.75,81.1,77,80,3.78,broken clouds,2022-08-10 22:36
28,Port Shepstone,ZA,-30.7414,30.455,71.96,86,96,2.75,overcast clouds,2022-08-10 22:45
29,Nobres,BR,-14.7203,-56.3275,77.5,75,13,1.83,few clouds,2022-08-10 22:45
30,Lasa,IT,46.6166,10.7002,48,87,75,5.75,broken clouds,2022-08-10 22:45
31,Bereda,ES,43.2686,-7.5406,51.01,100,100,5.99,overcast clouds,2022-08-10 22:45
32,Suda,RU,59.1525,37.5582,36.19,96,82,8.68,broken clouds,2022-08-10 22:45
33,Saldanha,ZA,-33.0117,17.9442,60.8,88,100,11.5,overcast clouds,2022-08-10 22:40
34,Ailigandi,PA,9.2333,-78.0167,80.83,78,73,3.83,broken clouds,2022-08-10 22:45
35,Hilo,US,19.7297,-155.09,78.8,53,20,8.05,few clouds,2022-08-10 22:43
36,Atuona,PF,-9.8,-139.0333,80.98,71,66,16.35,broken clouds,2022-08-10 22:45
37,Chokurdakh,RU,70.6333,147.9167,-16.74,99,100,1.28,overcast clouds,2022-08-10 22:45
38,Narsaq,GL,60.9167,-46.05,39.2,70,27,5.75,scattered clouds,2022-08-10 22:45
39,Husavik,IS,66.0449,-17.3389,24.8,68,0,8.05,clear sky,2022-08-10 22:45
40,Bethel,US,41.3712,-73.414,66,74,62,6.58,broken clouds,2022-08-10 22:41
41,Kudahuvadhoo,MV,2.6708,72.8944,82.51,74,22,10.85,few clouds,2022-08-10 22:45
42,Saint-Philippe,RE,-21.3585,55.7679,78.8,69,90,5.75,overcast clouds,2022-08-10 22:41
43,Kapaa,US,22.0752,-159.319,78.8,53,40,13.8,scattered clouds,2022-08-10 22:45
44,Mount Gambier,AU,-37.8333,140.7667,51.8,76,75,14.97,broken clouds,2022-08-10 22:31
45,Arraial Do Cabo,BR,-22.9661,-42.0278,76.39,64,0,13.02,clear sky,2022-08-10 22:45
46,Sitka,US,57.0531,-135.33,35.6,55,90,12.66,light snow,2022-08-10 22:36
47,Pisco,PE,-13.7,-76.2167,73.4,64,20,12.66,few clouds,2022-08-10 22:45
48,Negrar,IT,45.5288,10.938,54,82,90,8.05,overcast clouds,2022-08-10 22:45
49,Cherskiy,RU,68.75,161.3,-8.55,81,73,2.35,broken clouds,2022-08-10 22:42
50,Kavaratti,IN,10.5669,72.642,82.11,72,10,5.44,clear sky,2022-08-10 22:45
51,Vaini,TO,-21.2,-175.2,80.6,74,20,9.22,few clouds,2022-08-10 22:45
52,Kuruman,ZA,-27.4524,23.4325,69.78,37,0,3.74,clear sky,2022-08-10 22:45
53,Benghazi,LY,32.1167,20.0667,58.68,51,87,12.41,overcast clouds,2022-08-10 22:45
54,Gbarnga,LR,6.9956,-9.4722,75.51,91,100,4.16,overcast clouds,2022-08-10 22:45
55,Pevek,RU,69.7008,170.3133,-13.85,92,68,1.66,broken clouds,2022-08-10 22:45
56,High Level,CA,58.5169,-117.136,21.2,53,40,13.8,scattered clouds,2022-08-10 22:44
57,Nioki,CD,-2.7167,17.6833,71.02,96,100,2.57,overcast clouds,2022-08-10 22:45
58,Solnechnyy,RU,50.7214,136.6319,41.02,73,100,9.15,overcast clouds,2022-08-10 22:45
59,Nizwa,OM,22.9333,57.5333,72.75,53,1,2.77,clear sky,2022-08-10 22:45
60,Barrow,US,71.2906,-156.7887,-9.4,70,1,11.5,clear sky,2022-08-10 22:45
61,Nabire,ID,-3.3667,135.4833,77.76,86,100,0.56,overcast clouds,2022-08-10 22:45
62,Katobu,ID,-4.9408,122.5276,77.59,88,94,1.92,overcast clouds,2022-08-10 22:45
63,Bonthe,SL,7.5264,-12.505,80.55,86,100,8.72,overcast clouds,2022-08-10 22:45
64,Qaanaaq,GL,77.484,-69.3632,16.48,86,100,4.23,light snow,2022-08-10 22:45
65,Souillac,MU,-20.5167,57.5167,78.8,83,75,12.66,broken clouds,2022-08-10 22:42
66,Andira,BR,-0.7385,-47.8437,74.77,93,80,3.62,broken clouds,2022-08-10 22:45
67,Tocopilla,CL,-22.092,-70.1979,68.97,76,35,12.06,scattered clouds,2022-08-10 22:45
68,Buarcos,PT,40.166,-8.8768,57.99,94,40,2.3,scattered clouds,2022-08-10 22:45
69,Marinette,US,45.1,-87.6307,50,93,90,4.61,mist,2022-08-10 22:45
70,Nishihara,JP,26.1842,127.7558,71.6,68,40,20.71,scattered clouds,2022-08-10 22:45
71,Eldorado,BR,-23.7869,-54.2836,73,55,4,7.78,clear sky,2022-08-10 22:45
72,Hermanus,ZA,-34.4187,19.2345,60.01,91,100,1.01,overcast clouds,2022-08-10 22:40
73,Jamestown,US,42.097,-79.2353,73.4,27,1,10.36,clear sky,2022-08-10 22:43
74,Shelburne,CA,44.0787,-80.2041,69.8,46,1,9.22,clear sky,2022-08-10 22:37
75,Lazaro Cardenas,MX,17.9583,-102.2,82.09,53,3,13.11,clear sky,2022-08-10 22:45
76,Geraldton,AU,-28.7667,114.6,69.8,73,90,16.11,overcast clouds,2022-08-10 22:42
77,Lebu,CL,-37.6167,-73.65,53.19,85,0,9.46,clear sky,2022-08-10 22:45
78,Puerto Ayacucho,VE,5.6639,-67.6236,73.49,95,100,3.78,overcast clouds,2022-08-10 22:45
79,Carnarvon,AU,-24.8667,113.6333,77,88,99,17.27,overcast clouds,2022-08-10 22:45
80,Hualmay,PE,-11.0964,-77.6139,70.03,85,46,5.73,scattered clouds,2022-08-10 22:45
81,Kamaishi,JP,39.2667,141.8833,46.81,37,0,0.85,clear sky,2022-08-10 22:45
82,Tuktoyaktuk,CA,69.4541,-133.0374,-13,70,20,11.5,few clouds,2022-08-10 22:45
83,Rovaniemi,FI,66.5,25.7167,26.6,100,90,10.36,overcast clouds,2022-08-10 22:45
84,Saskylakh,RU,71.9167,114.0833,0.07,80,65,10.67,broken clouds,2022-08-10 22:45
85,Shubarkuduk,KZ,49.1447,56.4872,44.47,71,53,15.1,broken clouds,2022-08-10 22:36
86,Yulara,AU,-25.2406,130.9889,60.8,51,0,10.36,clear sky,2022-08-10 22:45
87,Bluff,NZ,-46.6,168.3333,62.01,86,85,1.99,overcast clouds,2022-08-10 22:45
88,Nanortalik,GL,60.1432,-45.2371,34.84,86,87,11.43,overcast clouds,2022-08-10 22:44
89,Tolaga Bay,NZ,-38.3667,178.3,71.49,75,32,12.35,scattered clouds,2022-08-10 22:45
90,Albany,US,42.6001,-73.9662,75,58,35,1.01,scattered clouds,2022-08-10 22:45
91,Imbituba,BR,-28.24,-48.6703,77,88,0,2.3,light rain,2022-08-10 22:45
92,Yellowknife,CA,62.456,-114.3525,10.99,48,40,10.36,scattered clouds,2022-08-10 22:40
93,Nikolskoye,RU,59.7035,30.7861,37,74,0,6.71,clear sky,2022-08-10 22:45
94,Necochea,AR,-38.5473,-58.7368,59,91,100,4,light rain,2022-08-10 22:36
95,Bemidji,US,47.4736,-94.8803,53.01,50,75,6.91,broken clouds,2022-08-10 22:45
96,Beloha,MG,-25.1667,45.05,69.73,97,5,5.66,clear sky,2022-08-10 22:35
97,Port Alfred,ZA,-33.5906,26.891,70.34,90,90,1.95,overcast clouds,2022-08-10 22:45
98,Wuzhou,CN,23.4833,111.3167,67.75,85,77,2.48,broken clouds,2022-08-10 22:41
99,Pringsewu,ID,-5.3582,104.9744,74.43,95,100,0.4,overcast clouds,2022-08-10 22:45
100,Hobart,AU,-42.8794,147.3294,44.6,81,75,18.41,moderate rain,2022-08-10 22:45
101,Provideniya,RU,64.3833,-173.3,2.77,77,100,22.79,overcast clouds,2022-08-10 22:44
102,Bereznik,RU,62.8551,42.7072,40.15,78,98,13.35,overcast clouds,2022-08-10 22:45
103,Katangli,RU,51.7102,143.2326,36.21,78,50,8.68,scattered clouds,2022-08-10 22:45
104,Mpika,ZM,-11.8343,31.4529,59.22,94,100,6.89,light rain,2022-08-10 22:45
105,Najran,SA,17.4924,44.1277,73.4,18,0,3.62,clear sky,2022-08-10 22:42
106,Tiksi,RU,71.6872,128.8694,-8.66,93,41,5.59,scattered clouds,2022-08-10 22:45
107,Peniche,PT,39.3558,-9.3811,59,91,8,3,clear sky,2022-08-10 22:45
108,Kabanjahe,ID,3.1001,98.4908,75.2,100,20,2.3,mist,2022-08-10 22:45
109,Grindavik,IS,63.8424,-22.4338,33.8,100,90,11.5,overcast clouds,2022-08-10 22:45
110,Shetpe,KZ,44.1667,52.1167,65.95,27,23,14.85,few clouds,2022-08-10 22:45
111,Fort Carson,US,38.7375,-104.7889,64.99,13,75,9.22,broken clouds,2022-08-10 22:45
112,Namibe,AO,-15.1961,12.1522,78.75,71,27,4.23,light rain,2022-08-10 22:45
113,Pag,HR,44.445,15.0575,50,76,20,6.91,few clouds,2022-08-10 22:45
114,Balkanabat,TM,39.5108,54.3671,73.72,16,73,17.72,broken clouds,2022-08-10 22:45
115,Haines Junction,CA,60.7522,-137.5108,8.6,23,97,5.75,overcast clouds,2022-08-10 22:44
116,Leland,US,34.2563,-78.0447,73.4,73,40,8.05,scattered clouds,2022-08-10 22:45
117,Sobolevo,RU,54.4299,31.8996,39.42,73,18,9.91,few clouds,2022-08-10 22:45
118,Acapulco,MX,16.8634,-99.8901,84.2,70,40,10.36,scattered clouds,2022-08-10 22:44
119,Thompson,CA,55.7435,-97.8558,39.2,56,40,8.05,scattered clouds,2022-08-10 22:45
120,Mgachi,RU,51.05,142.2667,45.07,55,32,16.31,scattered clouds,2022-08-10 22:45
121,Araouane,ML,18.9048,-3.5265,89.01,9,0,8.12,clear sky,2022-08-10 22:36
122,Benemerito De Las Americas,MX,16.5167,-90.6439,95.59,35,44,3.24,scattered clouds,2022-08-10 22:45
123,Sechura,PE,-5.5569,-80.8222,77.22,66,51,14.29,broken clouds,2022-08-10 22:45
124,Dikson,RU,73.5069,80.5464,18.84,90,92,22.48,overcast clouds,2022-08-10 22:45
125,Comodoro Rivadavia,AR,-45.8667,-67.5,59,51,0,23.02,clear sky,2022-08-10 22:45
126,Huarmey,PE,-10.0681,-78.1522,70.68,85,74,5.59,broken clouds,2022-08-10 22:45
127,Nyurba,RU,63.2842,118.3319,6.04,91,100,7.81,overcast clouds,2022-08-10 22:31
128,Portland,US,45.5234,-122.6762,51.01,55,100,7,overcast clouds,2022-08-10 22:34
129,Mauriti,BR,-7.3892,-38.7744,84.2,61,20,4.61,few clouds,2022-08-10 22:45
130,Touros,BR,-5.1989,-35.4608,77,88,40,4.61,scattered clouds,2022-08-10 22:45
131,Cayenne,GF,4.9333,-52.3333,75.2,100,90,4.61,light rain,2022-08-10 22:45
132,Viedma,AR,-40.8135,-62.9967,60.03,59,97,4.81,overcast clouds,2022-08-10 22:43
133,Lichuan,CN,30.3,108.85,45.5,97,100,2.73,overcast clouds,2022-08-10 22:45
134,Bredasdorp,ZA,-34.5322,20.0403,55.4,94,100,1.14,overcast clouds,2022-08-10 22:45
135,Clyde River,CA,70.4692,-68.5914,30.2,55,90,10.36,overcast clouds,2022-08-10 22:45
136,Wenling,CN,28.3669,121.36,62.01,95,100,7.16,light rain,2022-08-10 22:45
137,Zabol,AF,32.25,67.25,57.38,21,59,3.62,broken clouds,2022-08-10 22:45
138,Seoul,KR,37.5683,126.9778,44.6,87,0,3.44,clear sky,2022-08-10 22:43
139,Luderitz,NA,-26.6481,15.1594,72.45,53,0,7.63,clear sky,2022-08-10 22:45
140,Orchard Homes,US,46.8633,-114.0484,42.8,61,75,16.11,broken clouds,2022-08-10 22:45
141,Saint George,US,37.1041,-113.5841,82.99,7,1,12.66,clear sky,2022-08-10 22:36
142,Jacqueville,CI,5.2052,-4.4146,82.4,89,20,6.91,few clouds,2022-08-10 22:45
143,Baruun-Urt,MN,46.6806,113.2792,34.63,52,100,7.2,overcast clouds,2022-08-10 22:45
144,Bengkulu,ID,-3.8004,102.2655,74.97,88,61,4.09,broken clouds,2022-08-10 22:45
145,Sur,OM,22.5667,59.5289,79.66,62,1,10.71,clear sky,2022-08-10 22:45
146,Pangkalanbuun,ID,-2.6833,111.6167,75.04,97,79,0.67,light rain,2022-08-10 22:42
147,Gimli,CA,50.6336,-96.9907,37.4,81,64,4.61,broken clouds,2022-08-10 22:42
148,Nizhniy Tsasuchey,RU,50.5167,115.1333,30.29,45,99,10.18,overcast clouds,2022-08-10 22:45
149,Bawku,GH,11.0616,-0.2417,96.13,18,76,1.97,broken clouds,2022-08-10 22:45
150,The Pas,CA,53.8251,-101.2541,42.8,56,40,10.36,scattered clouds,2022-08-10 22:44
151,Taquari,BR,-29.7997,-51.8644,78.01,77,100,1.01,overcast clouds,2022-08-10 22:45
152,Cockburn Town,TC,21.4612,-71.1419,75.49,64,98,15.82,overcast clouds,2022-08-10 22:41
153,Vardo,NO,70.3705,31.1107,19.4,68,0,23.02,clear sky,2022-08-10 22:45
154,Tuatapere,NZ,-46.1333,167.6833,62.01,85,96,1.99,overcast clouds,2022-08-10 22:36
155,Talcahuano,CL,-36.7167,-73.1167,60.8,63,0,13.8,clear sky,2022-08-10 22:41
156,Zhanaozen,KZ,43.3,52.8,65.71,25,7,18.84,clear sky,2022-08-10 22:45
157,Khatanga,RU,71.9667,102.5,15.3,86,100,13.4,overcast clouds,2022-08-10 22:45
158,Kalmunai,LK,7.4167,81.8167,77.94,81,62,5.01,broken clouds,2022-08-10 22:45
159,Mar Del Plata,AR,-38.0023,-57.5575,66.99,82,90,16.11,moderate rain,2022-08-10 22:44
160,Kieta,PG,-6.2167,155.6333,78.19,91,100,6.71,moderate rain,2022-08-10 22:36
161,Ndele,CF,8.4109,20.6473,77.47,17,99,4.29,overcast clouds,2022-08-10 22:46
162,Norman Wells,CA,65.282,-126.8329,-5.8,71,90,8.05,light snow,2022-08-10 22:41
163,Mount Pleasant,US,32.7941,-79.8626,72,94,1,16.93,clear sky,2022-08-10 22:46
164,Inuvik,CA,68.3499,-133.7218,-2.2,46,100,6.91,overcast clouds,2022-08-10 22:46
165,South Hill,US,47.1412,-122.2701,52,30,75,5.75,broken clouds,2022-08-10 22:46
166,Merin,CZ,49.3932,15.8838,46,100,82,1.01,broken clouds,2022-08-10 22:46
167,Odienne,CI,9.51,-7.5692,86.94,39,93,6.64,overcast clouds,2022-08-10 22:46
168,Payo,ID,-3.7508,103.6372,72.36,96,63,1.3,broken clouds,2022-08-10 22:46
169,Timmins,CA,48.4669,-81.3331,62.6,48,75,2.3,broken clouds,2022-08-10 22:45
170,Vao,NC,-22.6667,167.4833,77.07,89,100,24.54,overcast clouds,2022-08-10 22:46
171,Magdagachi,RU,53.45,125.8,18.21,65,10,7.65,clear sky,2022-08-10 22:46
172,Katsuura,JP,35.1333,140.3,53.01,62,20,9.22,few clouds,2022-08-10 22:46
173,Talnakh,RU,69.4865,88.3972,28.13,97,100,4.92,light snow,2022-08-10 22:46
174,Constitucion,CL,-35.3333,-72.4167,53.94,81,0,12.1,clear sky,2022-08-10 22:46
175,Chapais,CA,49.7834,-74.8492,62.6,48,1,9.22,clear sky,2022-08-10 22:46
176,Kushiro,JP,42.975,144.3747,39.2,56,20,3.44,few clouds,2022-08-10 22:46
177,The Valley,AI,18.217,-63.0578,78.8,57,20,6.91,few clouds,2022-08-10 22:46
178,Xining,CN,36.6167,101.7667,37.09,88,100,0.63,overcast clouds,2022-08-10 22:36
179,Half Moon Bay,US,37.4636,-122.4286,66.99,67,1,11.5,clear sky,2022-08-10 22:46
180,Kamalia,PK,30.7333,72.65,72.34,19,4,6.93,clear sky,2022-08-10 22:46
181,San Ramon,US,37.7799,-121.978,75.99,33,1,9.22,clear sky,2022-08-10 22:43
182,Paramonga,PE,-10.6667,-77.8333,70.5,85,69,5.32,broken clouds,2022-08-10 22:46
183,Weligama,LK,5.9667,80.4167,76.71,83,22,1.99,few clouds,2022-08-10 22:46
184,La Ronge,CA,55.1001,-105.2842,41,45,92,9.22,overcast clouds,2022-08-10 22:46
185,Kawalu,ID,-7.3817,108.2082,73.04,94,100,1.57,overcast clouds,2022-08-10 22:46
186,Kruisfontein,ZA,-34.0033,24.7314,57,96,89,1.99,overcast clouds,2022-08-10 22:46
187,Chuy,UY,-33.6971,-53.4616,68.38,93,100,12.73,moderate rain,2022-08-10 22:46
188,Nanga Eboko,CM,4.6833,12.3667,69.13,95,71,0.67,light rain,2022-08-10 22:46
189,Barcelos,PT,41.5388,-8.6151,57,100,20,3.53,few clouds,2022-08-10 22:42
190,Yerbogachen,RU,61.2767,108.0108,0.93,94,27,3.62,scattered clouds,2022-08-10 22:46
191,Evensk,RU,61.95,159.2333,12.7,67,45,9.06,scattered clouds,2022-08-10 22:46
192,Buncrana,IE,55.1333,-7.45,33.35,72,20,6.53,few clouds,2022-08-10 22:46
193,Pangnirtung,CA,66.1451,-65.7125,29.39,85,100,5.66,overcast clouds,2022-08-10 22:46
194,Kokopo,PG,-4.352,152.2633,81.03,77,100,5.68,light rain,2022-08-10 22:46
195,Dunedin,NZ,-45.8742,170.5036,63.88,62,37,6.73,scattered clouds,2022-08-10 22:43
196,Tabou,CI,4.423,-7.3528,79.83,84,100,7.47,overcast clouds,2022-08-10 22:46
197,Faanui,PF,-16.4833,-151.75,82.27,70,59,9.6,broken clouds,2022-08-10 22:46
198,Price,US,39.5994,-110.8107,66.2,11,1,13.8,clear sky,2022-08-10 22:46
199,Qui Nhon,VN,13.7667,109.2333,75.9,87,68,6.06,broken clouds,2022-08-10 22:36
200,Pitimbu,BR,-7.4706,-34.8086,75.2,100,75,6.91,broken clouds,2022-08-10 22:46
201,Kaitangata,NZ,-46.2817,169.8464,64,71,52,4,broken clouds,2022-08-10 22:46
202,Castro,BR,-24.7911,-50.0119,61.88,63,0,2.86,clear sky,2022-08-10 22:46
203,Georgetown,MY,5.4112,100.3354,79,100,20,5.26,few clouds,2022-08-10 22:43
204,Sorland,NO,67.667,12.6934,36.34,84,100,26.51,overcast clouds,2022-08-10 22:36
205,Torbay,CA,47.6666,-52.7314,33.01,93,90,23.02,snow,2022-08-10 22:46
206,Lahaina,US,20.8783,-156.6825,78.8,53,20,12.66,few clouds,2022-08-10 22:44
207,Pacific Grove,US,36.6177,-121.9166,62.01,55,1,11.5,clear sky,2022-08-10 22:35
208,Vytegra,RU,61.0064,36.4481,34.68,84,86,10.69,overcast clouds,2022-08-10 22:46
209,Port Elizabeth,ZA,-33.918,25.5701,64.4,94,75,2.3,broken clouds,2022-08-10 22:41
210,Mayumba,GA,-3.432,10.6554,77.88,89,98,3.2,overcast clouds,2022-08-10 22:46
211,Kenai,US,60.5544,-151.2583,23,35,1,9.22,clear sky,2022-08-10 22:46
212,Kodiak,US,57.79,-152.4072,35.6,64,90,12.66,overcast clouds,2022-08-10 22:46
213,Reconquista,AR,-29.15,-59.65,80.82,70,51,3.91,broken clouds,2022-08-10 22:46
214,Narva-Joesuu,EE,59.4589,28.0408,33.51,79,3,13.22,clear sky,2022-08-10 22:46
215,Tautira,PF,-17.7333,-149.15,87.8,62,75,3.44,light rain,2022-08-10 22:46
216,East London,ZA,-33.0153,27.9116,70.14,91,77,3.18,broken clouds,2022-08-10 22:46
217,Patti,IN,31.2808,74.8572,75.2,59,20,3.42,haze,2022-08-10 22:46
218,Lompoc,US,34.6391,-120.4579,62.01,55,39,18.41,scattered clouds,2022-08-10 22:46
219,Poum,NC,-20.2333,164.0167,79.12,80,95,12.75,overcast clouds,2022-08-10 22:36
220,Kutum,SD,14.2,24.6667,70.74,11,47,11.14,scattered clouds,2022-08-10 22:46
221,Masterton,NZ,-40.9597,175.6575,70,95,53,3,broken clouds,2022-08-10 22:46
222,Mogadishu,SO,2.0371,45.3438,82.17,74,48,10.36,scattered clouds,2022-08-10 22:42
223,Tessalit,ML,20.1986,1.0114,85.28,11,0,5.7,clear sky,2022-08-10 22:46
224,Kununurra,AU,-15.7667,128.7333,68,100,98,1.14,overcast clouds,2022-08-10 22:42
225,Chipinge,ZW,-20.1883,32.6236,56.57,91,3,3.6,clear sky,2022-08-10 22:46
226,Petropavlovsk-Kamchatskiy,RU,53.0452,158.6483,33.8,51,0,6.71,clear sky,2022-08-10 22:46
227,Presidencia Roque Saenz Pena,AR,-26.7852,-60.4388,86,69,87,1.99,overcast clouds,2022-08-10 22:46
228,Avarua,CK,-21.2078,-159.775,82.4,78,40,8.05,scattered clouds,2022-08-10 22:46
229,Port Hardy,CA,50.6996,-127.4199,44.6,53,40,8.05,scattered clouds,2022-08-10 22:36
230,Olafsvik,IS,64.8945,-23.7142,39.06,93,100,13.13,overcast clouds,2022-08-10 22:46
231,Springbok,ZA,-29.6643,17.8865,69.75,35,6,1.86,clear sky,2022-08-10 22:46
232,Puerto Carreno,CO,6.189,-67.4859,74.71,91,100,5.17,overcast clouds,2022-08-10 22:46
233,Vestmanna,FO,62.1564,-7.1664,28.4,80,98,9.22,light snow,2022-08-10 22:46
234,Ilulissat,GL,69.2167,-51.1,21.2,79,90,3.44,overcast clouds,2022-08-10 22:46
235,Kendari,ID,-3.945,122.4989,75.6,90,100,3.56,overcast clouds,2022-08-10 22:46
236,Eyl,SO,7.9803,49.8164,78.31,70,2,8.16,clear sky,2022-08-10 22:46
237,Makakilo City,US,21.3469,-158.0858,78.8,50,20,9.22,few clouds,2022-08-10 22:46
238,Saint-Augustin,CA,51.226,-58.6502,34.18,87,100,12.97,overcast clouds,2022-08-10 22:46
239,Pyapon,MM,16.2833,95.6833,78.87,75,18,4.72,few clouds,2022-08-10 22:46
240,Maragogi,BR,-9.0122,-35.2225,77.59,88,99,9.98,overcast clouds,2022-08-10 22:44
241,Springdale,US,36.1867,-94.1288,57.99,71,90,10.36,overcast clouds,2022-08-10 22:44
242,Santa Maria,BR,-29.6842,-53.8069,84.2,54,0,4.61,clear sky,2022-08-10 22:43
243,Lingao,CN,19.9103,109.6859,72.73,90,52,13.67,broken clouds,2022-08-10 22:46
244,Ada,US,43.4166,-116.1262,61,20,1,18.41,clear sky,2022-08-10 22:46
245,Bagli,IN,22.65,76.35,82.9,16,70,2.13,broken clouds,2022-08-10 22:46
246,Nemuro,JP,43.3236,145.575,37.67,66,6,6.55,clear sky,2022-08-10 22:36
247,Punta Alta,AR,-38.8759,-62.0736,55.65,94,100,7.2,overcast clouds,2022-08-10 22:46
248,Ostrovnoy,RU,68.0531,39.5131,31.42,85,39,23.89,scattered clouds,2022-08-10 22:46
249,Dingle,PH,10.9995,122.6711,78.1,81,59,6.78,broken clouds,2022-08-10 22:46
250,Lorengau,PG,-2.0226,147.2712,81.66,83,100,15.5,overcast clouds,2022-08-10 22:46
251,Luganville,VU,-15.5333,167.1667,79.27,82,100,4.34,overcast clouds,2022-08-10 22:46
252,Bilma,NE,18.6853,12.9164,84.51,7,89,9.82,overcast clouds,2022-08-10 22:46
253,Sovetskiy,RU,61.3614,63.5842,33.67,98,100,5.12,light rain,2022-08-10 22:46
254,Kingsburg,US,36.5138,-119.554,75,33,1,6.91,clear sky,2022-08-10 22:46
255,Broken Hill,AU,-31.95,141.4333,51.8,71,23,11.5,few clouds,2022-08-10 22:36
256,Killybegs,IE,54.6333,-8.45,37.4,81,75,8.05,broken clouds,2022-08-10 22:46
257,Sinnamary,GF,5.3833,-52.95,78.26,84,76,7.14,moderate rain,2022-08-10 22:46
258,Beringovskiy,RU,63.05,179.3167,7.93,92,100,22.44,light snow,2022-08-10 22:46
259,Oksfjord,NO,70.2396,22.3479,33.8,55,75,12.66,light snow,2022-08-10 22:46
260,Padang,ID,-0.9492,100.3543,77,94,40,1.14,scattered clouds,2022-08-10 22:46
261,Suihua,CN,46.6406,126.9969,52.38,55,100,5.28,overcast clouds,2022-08-10 22:46
262,Conceicao Do Araguaia,BR,-8.2578,-49.2647,82.4,69,0,3.44,clear sky,2022-08-10 22:46
263,Diu,IN,20.7141,70.9822,78.35,49,0,11.43,clear sky,2022-08-10 22:46
264,Quepos,CR,9.4236,-84.1652,78.8,73,75,12.66,broken clouds,2022-08-10 22:46
265,Plettenberg Bay,ZA,-34.0527,23.3716,62.24,77,100,1.43,overcast clouds,2022-08-10 22:46
266,Whyalla,AU,-33.0333,137.5833,60.8,59,90,14.97,overcast clouds,2022-08-10 22:46
267,Novovoronezh,RU,51.3072,39.2173,37.4,65,0,6.71,clear sky,2022-08-10 22:46
268,Vila Franca Do Campo,PT,37.7167,-25.4333,62.6,94,75,8.05,mist,2022-08-10 22:36
269,Aguimes,ES,27.9054,-15.4461,66.2,63,20,13.8,few clouds,2022-08-10 22:46
270,Richards Bay,ZA,-28.783,32.0377,69.22,87,0,9.62,clear sky,2022-08-10 22:46
271,Iqaluit,CA,63.7506,-68.5145,23,86,90,19.57,overcast clouds,2022-08-10 22:46
272,Moindou,NC,-21.6924,165.677,77,94,90,8.05,overcast clouds,2022-08-10 22:46
273,Bissau,GW,11.8636,-15.5977,76.19,71,7,11.74,clear sky,2022-08-10 22:46
274,Sidney,AU,-33.8679,151.2073,61,36,0,26.46,clear sky,2022-08-10 22:45
275,Pizarro,CO,4.9533,-77.366,78.85,84,34,5.26,light rain,2022-08-10 22:46
276,Kamariotissa,GR,40.4833,25.4667,41,81,0,4.52,clear sky,2022-08-10 22:46
277,Butaritari,KI,3.0707,172.7902,81.99,77,99,14.65,overcast clouds,2022-08-10 22:46
278,Zhob,PK,31.3411,69.4481,63.48,29,2,1.61,clear sky,2022-08-10 22:46
279,Mahebourg,MU,-20.4081,57.7,78.8,83,75,12.66,light rain,2022-08-10 22:46
280,Requena,ES,39.4883,-1.1004,55,84,59,2.08,broken clouds,2022-08-10 22:46
281,Agustin Codazzi,CO,10.0341,-73.2361,75.83,91,91,4.9,overcast clouds,2022-08-10 22:46
282,Wageningen,NL,51.9667,5.6667,39,93,90,13.8,overcast clouds,2022-08-10 22:46
283,Tazmalt,DZ,36.3868,4.3989,61.14,61,100,3.87,overcast clouds,2022-08-10 22:46
284,Fairbanks,US,64.8378,-147.7164,15.01,31,1,10.36,clear sky,2022-08-10 22:46
285,Fort-Shevchenko,KZ,44.5086,50.263,53.65,72,99,7.7,overcast clouds,2022-08-10 22:46
286,Marevo,RU,57.3146,32.0804,38.41,93,100,2.59,overcast clouds,2022-08-10 22:46
287,Tigil,RU,57.8,158.6667,16.21,90,97,5.37,overcast clouds,2022-08-10 22:46
288,Bambous Virieux,MU,-20.3428,57.7575,80.01,83,75,12.66,light rain,2022-08-10 22:46
289,Chulman,RU,56.8479,124.9104,5.58,91,96,7.43,overcast clouds,2022-08-10 22:46
290,Andapa,MG,-14.65,49.65,67.44,98,98,2.1,overcast clouds,2022-08-10 22:46
291,Mayskiy,RU,47.6931,40.1025,46.4,66,20,13.42,light rain,2022-08-10 22:46
292,Payson,US,40.0444,-111.7321,69.01,13,20,3.44,few clouds,2022-08-10 22:46
293,Alta Floresta,BR,-9.8756,-56.0861,73.69,93,61,3.18,broken clouds,2022-08-10 22:46
294,Saint-Joseph,RE,-21.3667,55.6167,78.8,69,90,5.75,overcast clouds,2022-08-10 22:46
295,Oranjemund,NA,-28.55,16.4333,61.74,84,5,6.13,clear sky,2022-08-10 22:46
296,Leningradskiy,RU,69.3833,178.4167,-5.91,94,100,1.83,overcast clouds,2022-08-10 22:46
297,Ust-Omchug,RU,61.15,149.6333,2.01,87,91,6.04,overcast clouds,2022-08-10 22:46
298,Chimore,BO,-16.9833,-65.1333,72.07,99,100,1.72,overcast clouds,2022-08-10 22:46
299,Auki,SB,-8.7676,160.7034,83.52,70,100,3.11,overcast clouds,2022-08-10 22:36
300,Fortuna,US,40.5982,-124.1573,55.99,58,20,23.02,few clouds,2022-08-10 22:46
301,Palana,RU,59.1167,159.9667,11.62,84,87,3.78,overcast clouds,2022-08-10 22:46
302,Mubi,NG,10.2676,13.2644,83.03,39,37,4.61,scattered clouds,2022-08-10 22:46
303,Alice Springs,AU,-23.7,133.8833,63,51,0,9.22,clear sky,2022-08-10 22:46
304,Hanmer Springs,NZ,-42.5167,172.8167,63.66,58,70,6.04,broken clouds,2022-08-10 22:46
305,Coos Bay,US,43.3665,-124.2179,53.01,58,20,16.11,few clouds,2022-08-10 22:46
306,Havre-Saint-Pierre,CA,50.2334,-63.5986,41,42,75,11.5,broken clouds,2022-08-10 22:46
307,Christchurch,NZ,-43.5333,172.6333,75,49,38,5.75,scattered clouds,2022-08-10 22:46
308,San Patricio,US,28.017,-97.5169,89.6,33,1,12.66,clear sky,2022-08-10 22:46
309,Maneadero,MX,31.7167,-116.5667,68,75,49,3,scattered clouds,2022-08-10 22:45
310,Spencer,US,43.1414,-95.1444,57.2,47,1,19.57,clear sky,2022-08-10 22:46
311,Kahului,US,20.8947,-156.47,78.8,53,20,12.66,few clouds,2022-08-10 22:43
312,Jizan,SA,17.3333,42.6667,82.4,57,0,2.55,clear sky,2022-08-10 22:42
313,Mao,ES,39.8885,4.2658,51.8,93,20,2.3,few clouds,2022-08-10 22:44
314,Oriximina,BR,-1.7656,-55.8661,76.96,87,96,3.69,overcast clouds,2022-08-10 22:46
315,Palanca,RO,46.5333,26.1167,39.99,45,3,1.83,light rain,2022-08-10 22:46
316,Anshun,CN,26.25,105.9333,50.79,98,100,2.62,overcast clouds,2022-08-10 22:46
317,Antofagasta,CL,-23.65,-70.4,64.4,72,40,14.97,scattered clouds,2022-08-10 22:42
318,Buraydah,SA,26.326,43.975,73.4,35,20,14.97,few clouds,2022-08-10 22:46
319,Bainbridge,US,47.6262,-122.5212,52,32,75,8.05,broken clouds,2022-08-10 22:46
320,Dicabisagan,PH,17.0818,122.4157,76.1,80,97,5.73,overcast clouds,2022-08-10 22:46
321,Port Hawkesbury,CA,45.6169,-61.3485,32,69,90,11.5,overcast clouds,2022-08-10 22:46
322,Alofi,NU,-19.0595,-169.9187,82.4,78,6,5.75,light rain,2022-08-10 22:46
323,Mariakani,KE,-3.8633,39.4736,74.35,91,100,5.55,overcast clouds,2022-08-10 22:46
324,Lamar,US,33.6668,-95.5836,69.01,40,1,12.66,clear sky,2022-08-10 22:46
325,Summerville,US,33.0185,-80.1757,73.99,68,90,18.41,overcast clouds,2022-08-10 22:46
326,Concarneau,FR,47.875,-3.9225,42.8,87,0,9.22,clear sky,2022-08-10 22:46
327,Atascadero,US,35.4894,-120.6707,75,32,50,5.93,scattered clouds,2022-08-10 22:46
328,Marathon,US,44.9,-89.7668,53.6,66,90,8.05,overcast clouds,2022-08-10 22:46
329,Anadyr,RU,64.75,177.4833,8.6,61,100,6.71,overcast clouds,2022-08-10 22:46
330,Riyadh,SA,24.6877,46.7219,91.4,14,20,3.44,light rain,2022-08-10 22:46
331,Bhubaneswar,IN,20.2333,85.8333,78.8,94,40,5.79,haze,2022-08-10 22:46
332,Tapes,BR,-30.6733,-51.3958,73.98,82,88,6.71,overcast clouds,2022-08-10 22:46
333,Vestmannaeyjar,IS,63.4427,-20.2734,37.18,94,100,6.87,overcast clouds,2022-08-10 22:43
334,Kapit,MY,2.0167,112.9333,73.78,99,100,0.94,light rain,2022-08-10 22:46
335,Srandakan,ID,-7.9386,110.2506,77.86,86,92,3.13,overcast clouds,2022-08-10 22:42
336,Poggibonsi,IT,43.4724,11.1456,50,97,100,5.01,moderate rain,2022-08-10 22:46
337,Palmer,US,42.1584,-72.3287,68,64,61,7,broken clouds,2022-08-10 22:46
338,Bajil,YE,15.0584,43.2851,80.17,52,28,6.11,scattered clouds,2022-08-10 22:46
339,Pecos,US,31.4229,-103.4932,75.2,11,1,3.44,clear sky,2022-08-10 22:46
340,Naica,MX,27.85,-105.4833,87.84,6,37,6.6,scattered clouds,2022-08-10 22:46
341,Batagay,RU,67.6333,134.6333,-15.61,96,88,3.22,overcast clouds,2022-08-10 22:46
342,Folldal,NO,62.1325,9.9968,11.61,80,97,4.99,overcast clouds,2022-08-10 22:46
343,Ancud,CL,-41.8697,-73.8203,54,87,90,10.36,light rain,2022-08-10 22:46
344,Wanning,CN,18.8003,110.3967,74.55,90,61,9.62,broken clouds,2022-08-10 22:46
345,Alvorada,BR,-12.48,-49.1247,77.61,62,36,4.59,scattered clouds,2022-08-10 22:46
346,Pascagoula,US,30.3658,-88.5561,73.4,68,1,8.05,clear sky,2022-08-10 22:46
347,Kobryn,BY,52.2138,24.3564,45.37,73,37,9.15,scattered clouds,2022-08-10 22:46
348,Morondava,MG,-20.2833,44.2833,77.13,71,100,7.16,overcast clouds,2022-08-10 22:46
349,Samarai,PG,-10.6167,150.6667,82.45,67,95,12.75,overcast clouds,2022-08-10 22:46
350,Road Town,VG,18.4167,-64.6167,78.8,53,20,10.36,few clouds,2022-08-10 22:42
351,Tekeli,KZ,44.83,78.8239,39.94,58,85,9.73,overcast clouds,2022-08-10 22:46
352,Novosysoyevka,RU,44.235,133.3642,44.46,53,17,3.56,few clouds,2022-08-10 22:46
353,Banes,CU,20.9625,-75.7186,87.8,45,40,12.66,scattered clouds,2022-08-10 22:46
354,Harper,LR,4.375,-7.7169,80.58,82,99,7.31,overcast clouds,2022-08-10 22:42
355,Sept-Iles,CA,50.2001,-66.3821,37.99,60,40,8.05,scattered clouds,2022-08-10 22:46
356,Muleba,TZ,-1.8397,31.6544,64.96,85,100,7.11,overcast clouds,2022-08-10 22:46
357,Sicuani,PE,-14.2694,-71.2261,50.25,69,79,4.88,broken clouds,2022-08-10 22:46
358,Severo-Kurilsk,RU,50.6789,156.125,30.4,73,79,22.91,broken clouds,2022-08-10 22:46
359,Pauini,BR,-7.7136,-66.9764,71.06,98,100,1.59,overcast clouds,2022-08-10 22:46
360,Acheng,CN,45.5454,126.977,51.01,61,93,6.71,overcast clouds,2022-08-10 22:46
361,Banda Aceh,ID,5.5577,95.3222,78.91,81,81,5.08,broken clouds,2022-08-10 22:46
362,Cidreira,BR,-30.1811,-50.2056,75.24,80,100,10.09,overcast clouds,2022-08-10 22:46
363,Sao Jose Da Coroa Grande,BR,-8.8978,-35.1478,77.92,87,96,10.33,overcast clouds,2022-08-10 22:47
364,Luwuk,ID,-0.9516,122.7875,78.55,82,100,2.33,overcast clouds,2022-08-10 22:43
365,Panjab,AF,34.388,67.0233,38.48,85,95,0.04,overcast clouds,2022-08-10 22:42
366,Chivay,PE,-15.6383,-71.6011,47.77,89,95,7.58,overcast clouds,2022-08-10 22:47
367,Paita,PE,-5.0892,-81.1144,78.8,69,20,12.66,few clouds,2022-08-10 22:47
368,Shitkino,RU,56.3703,98.3543,18.88,88,5,0.92,clear sky,2022-08-10 22:47
369,Tarko-Sale,RU,64.9225,77.785,17.04,96,68,3.33,broken clouds,2022-08-10 22:47
370,Digby,CA,44.6169,-65.7655,50,81,100,2.3,overcast clouds,2022-08-10 22:47
371,Nome,US,64.5011,-165.4064,12,48,90,18.41,overcast clouds,2022-08-10 22:47
372,Sao Joao Da Barra,BR,-21.6403,-41.0511,74.61,66,1,8.75,clear sky,2022-08-10 22:47
373,Quang Ngai,VN,15.1167,108.8,73.26,90,58,3.36,broken clouds,2022-08-10 22:47
374,Zhangye,CN,38.9342,100.4517,47.86,40,65,0.85,broken clouds,2022-08-10 22:47
375,Paamiut,GL,61.994,-49.6678,31.05,92,35,8.37,scattered clouds,2022-08-10 22:47
376,Karratha,AU,-20.7377,116.8463,83.17,75,57,12.73,broken clouds,2022-08-10 22:47
377,Coahuayana,MX,18.7333,-103.6833,86,15,1,7.27,clear sky,2022-08-10 22:47
378,Marakkanam,IN,12.2,79.95,80.31,76,7,2.66,clear sky,2022-08-10 22:45
379,Hobyo,SO,5.3505,48.5268,82.13,61,6,14.2,clear sky,2022-08-10 22:47
380,Balkhash,KZ,46.844,74.9804,42.15,47,0,25.21,clear sky,2022-08-10 22:47
381,Ahipara,NZ,-35.1667,173.1667,71.83,69,5,2.93,clear sky,2022-08-10 22:47
382,Andros Town,BS,24.7,-77.7667,78.8,65,40,18.41,scattered clouds,2022-08-10 22:47
383,Haflong,IN,25.1833,93.0333,66.96,75,0,2.57,clear sky,2022-08-10 22:47
384,Ankazobe,MG,-18.3167,47.1167,62.6,94,40,4.61,scattered clouds,2022-08-10 22:43
385,Divnomorskoye,RU,44.5011,38.1353,43.86,90,100,7.7,light rain,2022-08-10 22:47
386,Marfino,RU,55.7028,37.3822,42.8,48,0,6.71,clear sky,2022-08-10 22:42
387,Oranjestad,AW,12.524,-70.027,82.4,74,20,20.71,few clouds,2022-08-10 22:46
388,Joshimath,IN,30.5667,79.5667,46.27,35,0,9.75,clear sky,2022-08-10 22:47
389,Sainte-Marie,RE,-20.8968,55.5496,75.2,88,90,16.11,overcast clouds,2022-08-10 22:47
390,Havoysund,NO,70.9963,24.6622,33.8,60,75,17.27,light snow,2022-08-10 22:47
391,Saint-Pierre,RE,-21.3393,55.4781,78.8,69,90,5.75,overcast clouds,2022-08-10 22:47
392,Sherbakul,RU,54.6316,72.3963,28.4,80,88,2.24,overcast clouds,2022-08-10 22:47
393,Kasongo-Lunda,CD,-6.4667,16.8167,68.32,97,82,2.06,broken clouds,2022-08-10 22:47
394,Goderich,CA,43.7501,-81.7165,75.2,35,100,11.5,overcast clouds,2022-08-10 22:43
395,Sao Miguel Do Araguaia,BR,-13.275,-50.1628,76.03,71,10,3.96,clear sky,2022-08-10 22:47
396,Verkh-Chebula,RU,56.0308,87.6218,23.68,95,19,2.26,few clouds,2022-08-10 22:47
397,Sao Lourenco Do Sul,BR,-31.3653,-51.9783,73.99,95,89,1.99,overcast clouds,2022-08-10 22:47
398,Caravelas,BR,-17.7125,-39.2481,74.46,81,1,5.35,clear sky,2022-08-10 22:47
399,Dhidhdhoo,MV,6.8833,73.1,82.51,68,6,2.53,clear sky,2022-08-10 22:47
400,Camacha,PT,33.0833,-16.3333,64.4,88,40,8.05,scattered clouds,2022-08-10 22:47
401,Port Pirie,AU,-33.1833,138.0167,60.8,59,90,14.97,overcast clouds,2022-08-10 22:47
402,Moron,AR,-34.6534,-58.6198,71.01,99,100,3.6,overcast clouds,2022-08-10 22:47
403,Macapa,BR,0.0389,-51.0664,75.2,100,90,4.61,light rain,2022-08-10 22:43
404,Ekhabi,RU,53.5102,142.9671,36.09,78,22,13.73,few clouds,2022-08-10 22:47
405,Farroupilha,BR,-29.225,-51.3478,75,72,99,3.47,overcast clouds,2022-08-10 22:47
406,West Bay,KY,19.3667,-81.4167,84.2,74,20,10.36,few clouds,2022-08-10 22:47
407,Lichinga,MZ,-13.3128,35.2406,62.6,94,0,5.75,clear sky,2022-08-10 22:47
408,Sao Miguel,BR,-5.4667,-35.3667,77,88,40,4.61,scattered clouds,2022-08-10 22:47
409,Diego De Almagro,CL,-26.3667,-70.05,65.55,46,86,4.88,overcast clouds,2022-08-10 22:47
410,Umarga,IN,17.8333,76.6167,79.84,48,94,11.18,overcast clouds,2022-08-10 22:47
411,Knysna,ZA,-34.0363,23.0471,55.4,100,0,2.3,clear sky,2022-08-10 22:47
412,Neiafu,TO,-18.65,-173.9833,80.6,69,20,0.36,few clouds,2022-08-10 22:47
413,Guatire,VE,10.4762,-66.5427,78.8,78,40,2.3,scattered clouds,2022-08-10 22:47
414,Dolinsk,RU,47.35,142.8,41,70,4,8.95,clear sky,2022-08-10 22:47
415,Komsomolskiy,UZ,40.4272,71.7189,55.4,41,1,2.3,clear sky,2022-08-10 22:47
416,Baijiantan,CN,45.6333,85.1833,48.34,26,4,8.75,clear sky,2022-08-10 22:47
417,Cabo San Lucas,MX,22.8909,-109.9124,78.8,69,20,13.04,few clouds,2022-08-10 22:43
418,Santa Cruz Cabralia,BR,-16.2781,-39.0247,77,78,20,4.61,few clouds,2022-08-10 22:47
419,Makat,KZ,47.6469,53.3463,60.96,47,14,19.13,few clouds,2022-08-10 22:47
420,Arona,ES,28.0996,-16.681,66.99,72,20,6.91,few clouds,2022-08-10 22:47
421,Nelson Bay,AU,-32.7167,152.15,64.99,59,40,14.97,scattered clouds,2022-08-10 22:47
422,Aitape,PG,-3.1374,142.3475,79.5,83,100,8.3,overcast clouds,2022-08-10 22:47
423,Correntina,BR,-13.3433,-44.6367,77.79,42,98,3.2,overcast clouds,2022-08-10 22:47
424,Chimbote,PE,-9.0853,-78.5783,69.66,86,86,7.7,overcast clouds,2022-08-10 22:47
425,Cap Malheureux,MU,-19.9842,57.6142,80.01,74,98,7,overcast clouds,2022-08-10 22:47
426,Naze,JP,28.3667,129.4833,66.2,63,20,18.41,few clouds,2022-08-10 22:47
427,Turkistan,KZ,43,68,47.64,42,0,16.02,clear sky,2022-08-10 22:47
428,Emerald,AU,-23.5333,148.1667,75.99,68,95,4.61,overcast clouds,2022-08-10 22:47
429,Behshahr,IR,36.6923,53.5526,56.52,88,47,4.43,scattered clouds,2022-08-10 22:46
430,Green River,US,41.5286,-109.4662,61,11,1,33.38,clear sky,2022-08-10 22:47
431,Usinsk,RU,65.9939,57.5281,32.83,88,84,22.28,broken clouds,2022-08-10 22:47
432,Xuddur,SO,4.1213,43.8894,74.3,83,91,12.46,light rain,2022-08-10 22:47
433,Bogatyye Saby,RU,56.0102,50.4483,35.22,99,100,3.87,snow,2022-08-10 22:47
434,Liepaja,LV,56.5419,21.0367,33.8,93,59,3.44,broken clouds,2022-08-10 22:47
435,Egvekinot,RU,66.3167,-179.1667,0.27,75,100,13.91,overcast clouds,2022-08-10 22:44
436,Chicama,PE,-7.8447,-79.1469,68,88,40,8.05,fog,2022-08-10 22:47
437,Dongsheng,CN,39.8161,109.9776,45.41,79,100,13.04,overcast clouds,2022-08-10 22:47
438,Yenagoa,NG,4.9247,6.2642,78.57,86,68,3.98,broken clouds,2022-08-10 22:47
439,Scottsbluff,US,41.8666,-103.6672,70,12,1,8.05,clear sky,2022-08-10 22:47
440,Upernavik,GL,72.7868,-56.1549,16.21,91,98,6.93,overcast clouds,2022-08-10 22:47
441,Razole,IN,16.4833,81.8333,77.11,91,53,1.61,broken clouds,2022-08-10 22:47
442,Ca Mau,VN,9.1769,105.15,79.99,77,16,8.25,few clouds,2022-08-10 22:47
443,Northam,GB,51.0333,-4.2167,41,80,22,5.99,few clouds,2022-08-10 22:47
444,Kintampo,GH,8.0563,-1.7306,81.63,60,100,7.05,moderate rain,2022-08-10 22:47
445,Pangoa,PE,-12.1167,-73,69.85,98,100,0.76,moderate rain,2022-08-10 22:47
446,Victoria,HK,22.2855,114.1577,71.01,79,65,18.07,broken clouds,2022-08-10 22:45
447,Kizukuri,JP,40.8061,140.3861,45,65,20,6.91,few clouds,2022-08-10 22:46
448,Sao Filipe,CV,14.8961,-24.4956,75.24,65,21,12.73,few clouds,2022-08-10 22:47
449,Zhoucheng,CN,35.9122,116.3117,50.81,72,41,9.33,scattered clouds,2022-08-10 22:47
450,Muroto,JP,33.2833,134.15,50,57,0,10.36,clear sky,2022-08-10 22:47
451,Ossora,RU,59.2353,163.0719,15.49,66,15,17.38,few clouds,2022-08-10 22:47
452,Te Anau,NZ,-45.4167,167.7167,55.92,94,100,3.49,overcast clouds,2022-08-10 22:46
453,Igarka,RU,67.4667,86.5833,32.05,87,100,11.68,overcast clouds,2022-08-10 22:47
454,Sharjah,AE,25.3573,55.4033,84.2,19,0,3.44,clear sky,2022-08-10 22:47
455,Guaraciaba Do Norte,BR,-4.1669,-40.7475,66.15,87,88,4.61,overcast clouds,2022-08-10 22:47
456,Dotnuva,LT,55.35,23.9,41,75,90,2.3,overcast clouds,2022-08-10 22:47
457,Klaksvik,FO,62.2266,-6.589,28.4,80,100,9.22,light snow,2022-08-10 22:47
458,Puerto Leguizamo,CO,-0.1934,-74.7819,75.45,90,95,1.43,overcast clouds,2022-08-10 22:47
459,Synya,RU,65.3718,58.0387,33.48,90,28,12.21,scattered clouds,2022-08-10 22:47
460,Sola,VU,-13.8833,167.55,80.89,71,91,3.65,overcast clouds,2022-08-10 22:47
461,Englewood,US,39.6478,-104.9878,70,12,1,5.01,clear sky,2022-08-10 22:45
462,Los Teques,VE,10.3445,-67.0433,78.8,78,40,2.3,scattered clouds,2022-08-10 22:47
463,Neuquen,AR,-38.9516,-68.0591,66.2,52,20,4.61,few clouds,2022-08-10 22:47
464,Praya,CV,14.9215,-23.5087,73.4,56,0,16.11,clear sky,2022-08-10 22:47
465,Zaysan,KZ,47.4667,84.8667,37.78,43,0,4.85,clear sky,2022-08-10 22:47
466,Lavrentiya,RU,65.5833,-171,-1.59,78,100,17.85,overcast clouds,2022-08-10 22:42
467,Qaqortoq,GL,60.7167,-46.0333,39.2,70,48,5.75,scattered clouds,2022-08-10 22:47
468,Ludwigsfelde,DE,52.3,13.2667,46.99,87,75,10.36,light rain,2022-08-10 22:47
469,Urengoy,RU,65.9667,78.3667,17.49,96,54,6.13,broken clouds,2022-08-10 22:47
470,Dharchula,IN,29.85,80.5333,55.83,23,0,9.24,clear sky,2022-08-10 22:47
471,Mamou,GN,10.5,-12,77.4,57,63,3.78,broken clouds,2022-08-10 22:47
472,Mchinji,MW,-13.7984,32.8802,59.31,86,94,3.13,overcast clouds,2022-08-10 22:47
473,San Quintin,MX,30.4833,-115.95,65.43,68,58,15.32,broken clouds,2022-08-10 22:47
474,Kandrian,PG,-6.2167,149.55,75.92,93,100,3.83,light rain,2022-08-10 22:47
475,Gunnedah,AU,-30.9833,150.25,60.01,64,0,1.99,clear sky,2022-08-10 22:47
476,Oistins,BB,13.0667,-59.5333,78.8,65,20,6.91,volcanic ash,2022-08-10 22:47
477,Naliya,IN,23.2667,68.8333,76.8,68,0,7.94,clear sky,2022-08-10 22:47
478,Koulikoro,ML,14,-7.75,85.62,8,0,6.62,clear sky,2022-08-10 22:47
479,Mesopotamia,IQ,33,44,66.2,55,0,9.22,clear sky,2022-08-10 22:46
480,Guarapuava,BR,-25.3953,-51.4581,59.16,71,1,1.45,clear sky,2022-08-10 22:47
481,Togul,RU,53.465,85.9128,29.35,84,7,6.89,clear sky,2022-08-10 22:47
482,Samoded,RU,63.6083,40.5111,35.22,96,100,10.98,light rain,2022-08-10 22:47
483,Leshukonskoye,RU,64.8989,45.7622,37.85,92,100,13.89,overcast clouds,2022-08-10 22:47
484,Champoton,MX,19.35,-90.7167,95,49,40,13.8,scattered clouds,2022-08-10 22:47
485,Sume,BR,-7.6717,-36.88,71.53,86,72,9.33,broken clouds,2022-08-10 22:47
486,Flinders,AU,-34.5833,150.8552,57.99,55,0,7,clear sky,2022-08-10 22:47
487,Meadow Lake,US,34.8014,-106.5436,78.01,6,20,9.22,few clouds,2022-08-10 22:47
488,Santa Rosa,PH,14.3122,121.1114,80.01,78,40,2.3,scattered clouds,2022-08-10 22:47
489,Bang Saphan,TH,11.2126,99.5117,75.29,92,27,2.77,scattered clouds,2022-08-10 22:47
490,Pangody,RU,65.85,74.4859,32.09,90,90,12.19,overcast clouds,2022-08-10 22:47
491,Taltal,CL,-25.4,-70.4833,65.86,80,89,2.91,overcast clouds,2022-08-10 22:47
492,Bismarck,US,46.8083,-100.7837,69.8,16,1,9.22,clear sky,2022-08-10 22:43
493,Grieskirchen,AT,48.2333,13.8333,50,53,79,3.44,broken clouds,2022-08-10 22:47
494,Launceston,AU,-41.45,147.1667,46,76,40,8.05,scattered clouds,2022-08-10 22:47
495,Vigrestad,NO,58.5667,5.7,30,91,13,7.29,few clouds,2022-08-10 22:47
496,Tignere,CM,7.3667,12.65,69.75,67,76,3.22,broken clouds,2022-08-10 22:47
497,Matay,EG,28.419,30.7792,52.81,47,0,10.49,clear sky,2022-08-10 22:47
498,Mildura,AU,-34.2,142.15,51.01,71,27,9.22,scattered clouds,2022-08-10 22:43
499,Show Low,US,34.2542,-110.0298,71.6,7,1,17.27,clear sky,2022-08-10 22:47
500,Ransang,PH,8.9603,117.5828,78.93,81,91,3.49,overcast clouds,2022-08-10 22:47
501,Sibolga,ID,1.7427,98.7792,75.31,89,71,2.15,broken clouds,2022-08-10 22:47
502,Port Lincoln,AU,-34.7333,135.8667,59.34,61,93,14.92,overcast clouds,2022-08-10 22:47
503,Suluq,LY,31.6682,20.2521,57.07,42,77,13.42,broken clouds,2022-08-10 22:47
504,Ambilobe,MG,-13.2,49.05,72.52,92,99,3.11,overcast clouds,2022-08-10 22:47
505,Manuk Mangkaw,PH,4.8,119.85,82.24,74,92,4.38,overcast clouds,2022-08-10 22:47
506,Ayagoz,KZ,47.9714,80.4392,31.19,84,2,15.93,clear sky,2022-08-10 22:47
507,Kargasok,RU,59.0556,80.8572,31.3,91,99,8.01,overcast clouds,2022-08-10 22:47
508,North Branch,US,45.5113,-92.9802,48,86,98,5.99,overcast clouds,2022-08-10 22:47
509,Talaya,RU,61.3833,152.75,-2.49,89,99,4.81,overcast clouds,2022-08-10 22:44
510,Batesville,US,35.7698,-91.641,64.4,39,1,17.27,clear sky,2022-08-10 22:47
511,Casablanca,MA,33.5928,-7.6192,64,93,20,3.44,few clouds,2022-08-10 22:47
512,Villanueva De Cordoba,ES,38.3228,-4.6287,59,88,20,8.05,few clouds,2022-08-10 22:47
513,Coquimbo,CL,-29.9533,-71.3436,60.8,72,0,12.66,clear sky,2022-08-10 22:47
514,Flin Flon,CA,54.7682,-101.865,42.8,45,75,6.91,broken clouds,2022-08-10 22:46
515,Zapadnaya Dvina,RU,56.259,32.0745,41.92,93,98,0.72,light rain,2022-08-10 22:47
516,Picos,BR,-7.0769,-41.4669,82.53,43,99,3.58,overcast clouds,2022-08-10 22:47
517,Rio Grande,BR,-32.035,-52.0986,73.99,95,100,1.01,overcast clouds,2022-08-10 22:43
518,Coihaique,CL,-45.5752,-72.0662,50,76,75,4.61,broken clouds,2022-08-10 22:47
519,Hovd,MN,48.0056,91.6419,28.02,55,100,3.56,overcast clouds,2022-08-10 22:47
520,Sesheke,ZM,-17.4759,24.2968,60.8,60,0,4.36,clear sky,2022-08-10 22:47
521,Adrar,MR,20.5022,-10.0711,78.98,19,2,14.32,clear sky,2022-08-10 22:47
522,Weihai,CN,37.5017,122.1136,49.03,74,93,10.29,overcast clouds,2022-08-10 22:47
523,Manaure,CO,11.7751,-72.4445,84.58,60,81,15.82,broken clouds,2022-08-10 22:47
524,Keti Bandar,PK,24.1447,67.4497,79.2,67,0,16.33,clear sky,2022-08-10 22:47
525,Ayan,RU,56.45,138.1667,27.09,92,100,8.68,light snow,2022-08-10 22:44
526,Salalah,OM,17.0151,54.0924,80.6,74,20,2.3,few clouds,2022-08-10 22:47
527,Camana,PE,-16.6228,-72.7111,69.04,83,58,7.67,broken clouds,2022-08-10 22:47
528,Tynda,RU,55.1667,124.7167,8.71,73,4,4.09,clear sky,2022-08-10 22:47
529,Varadero,CU,23.1536,-81.2514,87.8,55,40,12.66,scattered clouds,2022-08-10 22:47
530,Kollo,NE,13.3043,2.339,91.4,6,0,5.75,clear sky,2022-08-10 22:47
531,Kiruna,SE,67.8557,20.2251,21.2,79,41,13.8,scattered clouds,2022-08-10 22:47
532,Baker City,US,44.7749,-117.8344,42.8,42,90,26.46,overcast clouds,2022-08-10 22:47
533,Meulaboh,ID,4.1363,96.1285,76.91,87,58,4.14,broken clouds,2022-08-10 22:43
534,Baryatino,RU,54.3121,34.521,35.98,77,3,7.36,clear sky,2022-08-10 22:47
535,Atar,MR,20.5169,-13.0499,81.12,20,1,10.98,clear sky,2022-08-10 22:47
536,Homer,US,59.6425,-151.5483,27,50,90,9.22,overcast clouds,2022-08-10 22:47
537,Port Keats,AU,-14.25,129.55,83.98,70,13,1.88,few clouds,2022-08-10 22:47
538,Prainha,BR,-1.8,-53.48,75.67,92,58,3.11,light rain,2022-08-10 22:47
539,Andra,RU,62.5147,65.8878,30.63,98,100,7.61,overcast clouds,2022-08-10 22:47
540,Ravar,IR,31.2656,56.8055,71.02,23,69,5.08,broken clouds,2022-08-10 22:47
541,Vargem Grande,BR,-3.5431,-43.9158,74.77,94,99,3,light rain,2022-08-10 22:47
542,Roald,NO,62.5833,6.1333,35.6,93,75,20.71,light snow,2022-08-10 22:47
543,Vostok,RU,46.4856,135.8833,41.45,46,73,5.37,broken clouds,2022-08-10 22:47
544,Esperance,AU,-33.8667,121.9,57.2,88,98,12.66,overcast clouds,2022-08-10 22:47
545,Mackay,AU,-21.15,149.2,79,88,6,4.61,clear sky,2022-08-10 22:47
546,Jasper,US,37.2001,-94.3502,60.8,51,90,12.66,overcast clouds,2022-08-10 22:45
547,Ponta Delgada,PT,37.7333,-25.6667,62.6,94,75,10.36,mist,2022-08-10 22:47
548,Phangnga,TH,8.4509,98.5298,82,94,20,1.14,few clouds,2022-08-10 22:47
549,Suntar,RU,62.1444,117.6319,7.84,90,100,8.46,overcast clouds,2022-08-10 22:47
550,San Andres,CO,12.5847,-81.7006,82.4,78,90,10.36,overcast clouds,2022-08-10 22:48
551,Veinticinco De Mayo,AR,-35.4323,-60.1727,66.99,63,100,1.99,overcast clouds,2022-08-10 22:48
552,Chiang Khong,TH,20.2613,100.4046,71.6,94,0,3.44,clear sky,2022-08-10 22:48
553,Hirado,JP,33.3597,129.5531,53.01,62,0,3.44,clear sky,2022-08-10 22:48
554,Romans-Sur-Isere,FR,45.0464,5.0562,48,78,100,9.64,overcast clouds,2022-08-10 22:48
555,Longyearbyen,SJ,78.2186,15.6401,21.2,68,75,19.57,broken clouds,2022-08-10 22:48
556,Amuntai,ID,-2.4177,115.2494,74.7,98,98,0.72,overcast clouds,2022-08-10 22:48
557,Rawson,AR,-43.3002,-65.1023,64.4,41,1,8.03,clear sky,2022-08-10 22:48
558,Kharp,RU,66.8014,65.8081,21.88,99,100,3.47,overcast clouds,2022-08-10 22:48
559,Pochutla,MX,15.7432,-96.4661,86,65,20,17.27,few clouds,2022-08-10 22:48
560,Belaya Gora,RU,68.5333,146.4167,-12.35,92,82,2.89,broken clouds,2022-08-10 22:48
561,Margate,GB,51.3813,1.3862,41,72,100,5.99,light rain,2022-08-10 22:43
562,Swan Hill,AU,-35.3378,143.5544,53.33,50,7,17.47,clear sky,2022-08-10 22:48
563,Mandalgovi,MN,45.7625,106.2708,35.51,62,6,2.64,clear sky,2022-08-10 22:43
564,Mgandu,TZ,-5.95,34.1333,60.19,96,99,4.16,overcast clouds,2022-08-10 22:48
565,Hoquiam,US,46.9809,-123.8893,48.99,61,20,19.57,few clouds,2022-08-10 22:48
566,Saltpond,GH,5.2091,-1.0606,80.96,85,55,8.46,broken clouds,2022-08-10 22:48
567,Kaeo,NZ,-35.1,173.7833,70,91,26,0.45,scattered clouds,2022-08-10 22:48
568,Riberalta,BO,-10.9833,-66.1,87.8,66,75,1.57,broken clouds,2022-08-10 22:48
569,Ust-Koksa,RU,50.2696,85.6108,25.36,89,17,3.06,few clouds,2022-08-10 22:48
570,Altay,CN,47.8667,88.1167,33.24,39,0,11.1,clear sky,2022-08-10 22:48
571,Sakakah,SA,29.9697,40.2064,57.2,33,0,12.66,clear sky,2022-08-10 22:48
572,Inhambane,MZ,-23.865,35.3833,72.84,83,1,5.93,clear sky,2022-08-10 22:43
573,Grand-Santi,GF,4.25,-54.3833,73.81,97,98,2.59,moderate rain,2022-08-10 22:48
574,Santiago Del Estero,AR,-27.7951,-64.2615,65.5,61,87,23.78,overcast clouds,2022-08-10 22:44
575,Lososina,RU,48.9975,140.3106,46.22,47,21,8.28,few clouds,2022-08-10 22:48
576,Krasnoselkup,RU,65.7,82.4667,32.99,82,100,9.01,overcast clouds,2022-08-10 22:48
577,Charters Towers,AU,-20.1,146.2667,80.47,44,8,6.02,clear sky,2022-08-10 22:48
578,Inta,RU,66.0317,60.1659,35.51,77,99,17.22,overcast clouds,2022-08-10 22:48
579,Dudinka,RU,69.4058,86.1778,13.24,97,73,4.59,broken clouds,2022-08-10 22:48
580,Masingbi,SL,8.7833,-11.95,80.1,79,75,4.25,broken clouds,2022-08-10 22:48
581,Bowen,AU,-20.0167,148.2333,77,88,27,5.75,scattered clouds,2022-08-10 22:48
582,Mazamari,PE,-11.3258,-74.5308,71.82,97,99,2.17,overcast clouds,2022-08-10 22:48
583,Sao Jose De Ribamar,BR,-2.5619,-44.0542,77,94,75,2.3,broken clouds,2022-08-10 22:48
584,Zheshart,RU,62.0731,49.5733,32.09,91,2,7.7,clear sky,2022-08-10 22:48
585,Malinovskiy,RU,61.1953,62.8397,33.87,98,100,4.94,moderate rain,2022-08-10 22:48
586,Itaituba,BR,-4.2761,-55.9836,74.98,94,100,0.63,overcast clouds,2022-08-10 22:48
587,Andenes,NO,69.3143,16.1194,35.6,87,90,19.57,light rain,2022-08-10 22:48
588,Mabay,PH,6.0577,124.4666,78.94,80,100,3.89,overcast clouds,2022-08-10 22:48
589,Galle,LK,6.0367,80.217,78.55,76,7,1.36,clear sky,2022-08-10 22:48
590,Qingdao,CN,36.0986,120.3719,53.01,93,0,8.95,clear sky,2022-08-10 22:48
591,Kawhia,NZ,-38.0651,174.8183,73,96,55,3,broken clouds,2022-08-10 22:48
592,Chibuto,MZ,-24.6867,33.5306,66.74,96,0,4.32,clear sky,2022-08-10 22:48
593,Seydisehir,TR,37.4193,31.8453,27.19,89,64,8.3,broken clouds,2022-08-10 22:48
594,Mukhen,RU,48.1,136.1,48.87,34,91,11.48,overcast clouds,2022-08-10 22:48
595,Douglas,US,41.3,-96.167,62.6,29,1,19.57,clear sky,2022-08-10 22:48
596,Mahibadhoo,MV,3.7833,72.9667,82.8,73,13,9.01,few clouds,2022-08-10 22:48
597,Betma,IN,22.6833,75.6167,79.09,16,17,6.55,few clouds,2022-08-10 22:48
598,Petrivka,UA,46.9695,30.9591,37.4,65,0,4.47,clear sky,2022-08-10 22:48
599,Ust-Kulom,RU,61.6864,53.6902,25.25,98,21,2.44,few clouds,2022-08-10 22:48
600,Salta,AR,-24.7859,-65.4117,75.2,73,40,6.91,scattered clouds,2022-08-10 22:48
601,Alugan,PH,12.2188,125.4808,80.13,79,76,9.69,broken clouds,2022-08-10 22:48
602,Itaqui,BR,-29.1253,-56.5531,79.41,65,2,6.78,clear sky,2022-08-10 22:48
603,Powell River,CA,49.8496,-124.5361,48.2,46,40,18.41,scattered clouds,2022-08-10 22:45
604,Okha,RU,53.5739,142.9478,35.96,77,24,13.49,few clouds,2022-08-10 22:48
605,Semey,KZ,50.4111,80.2275,33.76,83,6,14.72,clear sky,2022-08-10 22:48
606,Wanlaweyn,SO,2.6185,44.8938,80.35,74,80,9.31,broken clouds,2022-08-10 22:47
607,Aguas Vermelhas,BR,-15.7472,-41.46,63.84,80,20,3.96,few clouds,2022-08-10 22:48
608,Avera,US,33.194,-82.5271,71.6,83,40,12.66,scattered clouds,2022-08-10 22:48
609,Hambantota,LK,6.1241,81.1185,75.2,100,40,4.61,scattered clouds,2022-08-10 22:48
610,Fort Nelson,CA,58.8053,-122.7002,21.2,45,75,3.44,broken clouds,2022-08-10 22:48
611,Fukue,JP,32.6881,128.8419,60.6,61,100,10.4,overcast clouds,2022-08-10 22:48
612,Greenville,US,35.6127,-77.3663,77,53,1,10.36,clear sky,2022-08-10 22:48
613,Kikwit,CD,-5.041,18.8162,72.27,92,100,3.2,overcast clouds,2022-08-10 22:48
614,Bluefields,NI,12.0137,-83.7635,80.6,89,40,4.61,scattered clouds,2022-08-10 22:48
615,Tommot,RU,58.9564,126.2925,9.28,86,100,10.27,overcast clouds,2022-08-10 22:48
616,Fomboni,KM,-12.28,43.7425,83.52,72,100,8.81,overcast clouds,2022-08-10 22:48
617,Carballo,ES,43.213,-8.691,51.01,94,100,5.01,overcast clouds,2022-08-10 22:48
618,Opotiki,NZ,-38.0833,177.2833,68,99,97,5.01,light rain,2022-08-10 22:48
619,Kuna,US,43.4918,-116.4201,61,21,1,18.41,clear sky,2022-08-10 22:45
620,Bundaberg,AU,-24.85,152.35,73.4,73,61,6.91,broken clouds,2022-08-10 22:48
621,Songjianghe,CN,42.1859,127.479,43.79,56,100,7.45,overcast clouds,2022-08-10 22:48
622,Honiara,SB,-9.4333,159.95,82.56,77,93,4.79,overcast clouds,2022-08-10 22:48
623,Saldus,LV,56.6636,22.4881,29.8,80,42,4.29,scattered clouds,2022-08-10 22:48
624,Gandai,IN,21.6667,81.1,80.6,33,21,2.28,few clouds,2022-08-10 22:48
625,La Vista,US,41.1839,-96.0311,62.6,34,1,12.66,clear sky,2022-08-10 22:48
626,Roebourne,AU,-20.7833,117.1333,82.83,76,52,9.93,broken clouds,2022-08-10 22:48
627,Namatanai,PG,-3.6667,152.4333,80.94,82,98,8.34,light rain,2022-08-10 22:48
628,Garmsar,IR,35.2182,52.3409,73.74,28,100,7.85,overcast clouds,2022-08-10 22:48
629,Jackson,US,42.4165,-122.8345,61,36,1,11.5,clear sky,2022-08-10 22:43
630,Chumikan,RU,54.7183,135.315,33.91,69,83,21.32,broken clouds,2022-08-10 22:48
631,Los Llanos De Aridane,ES,28.6585,-17.9182,66.2,72,0,5.75,clear sky,2022-08-10 22:48
632,Vilhena,BR,-12.7406,-60.1458,71.6,100,20,2.3,few clouds,2022-08-10 22:48
633,Khudumelapye,BW,-23.8833,24.75,67.96,48,0,4.63,clear sky,2022-08-10 22:48
634,Raudeberg,NO,61.9875,5.1352,34,92,92,6.38,overcast clouds,2022-08-10 22:48
635,Huron,US,41.1501,-82.5499,77,43,40,8.05,light rain,2022-08-10 22:48
636,Sakaiminato,JP,35.55,133.2333,41,87,1,2.3,clear sky,2022-08-10 22:48
637,Yunyang,CN,33.4474,112.7142,53.53,65,100,5.28,light rain,2022-08-10 22:48
638,Yamoussoukro,CI,6.8206,-5.2767,78.8,89,0,3.44,moderate rain,2022-08-10 22:48
639,Fare,PF,-16.7,-151.0167,82.2,74,38,11.12,scattered clouds,2022-08-10 22:48
640,Khor,RU,47.8861,134.9464,47.39,38,95,9.93,overcast clouds,2022-08-10 22:48
641,Ulladulla,AU,-35.35,150.4667,57,50,1,11.5,clear sky,2022-08-10 22:48
642,Maceio,BR,-9.6658,-35.7353,73.4,94,75,3.44,broken clouds,2022-08-10 22:43
643,Karasuk,RU,53.7377,78.0403,33.35,90,100,8.93,overcast clouds,2022-08-10 22:48
644,Koumac,NC,-20.5667,164.2833,79.11,82,100,8.68,overcast clouds,2022-08-10 22:48
645,Miramar,US,25.9873,-80.2323,82.4,57,20,16.11,few clouds,2022-08-10 22:48
646,Tongren,CN,27.7172,109.1853,54.46,97,100,1.97,light rain,2022-08-10 22:48
647,Nortelandia,BR,-14.4547,-56.8028,76.98,76,84,3.6,broken clouds,2022-08-10 22:48
648,Kozan,TR,37.4552,35.8157,46.99,100,75,6.91,light rain,2022-08-10 22:48
649,Novoagansk,RU,61.9449,76.6625,32.31,99,100,2.06,overcast clouds,2022-08-10 22:48
650,Kavieng,PG,-2.5744,150.7967,81.99,74,100,7.38,light rain,2022-08-10 22:48
651,Anupgarh,IN,29.1911,73.2086,78.91,12,0,5.37,clear sky,2022-08-10 22:48
652,Natal,BR,-5.795,-35.2094,77,94,40,4.61,scattered clouds,2022-08-10 22:48
653,Itarema,BR,-2.9248,-39.9167,80.49,80,41,13.6,scattered clouds,2022-08-10 22:48
654,Helmsdale,GB,58.1168,-3.6517,35.6,93,14,5.75,few clouds,2022-08-10 22:48
655,Falavarjan,IR,32.5553,51.5097,60.8,39,75,11.5,broken clouds,2022-08-10 22:48
656,Ojinaga,MX,29.5667,-104.4167,87.8,8,1,2.3,clear sky,2022-08-10 22:48
657,Yarada,IN,17.65,83.2667,77,94,20,2.3,mist,2022-08-10 22:48
658,Kabinda,CD,-6.1333,24.4833,64.38,96,98,5.1,overcast clouds,2022-08-10 22:48
659,Nuuk,GL,64.1835,-51.7216,28.4,93,90,8.05,overcast clouds,2022-08-10 22:48
660,Capao Bonito,BR,-24.0058,-48.3494,63.25,68,0,1.81,light rain,2022-08-10 22:48
661,Wagga Wagga,AU,-35.1167,147.3667,48.99,76,40,13.8,scattered clouds,2022-08-10 22:48
662,Tatawin,TN,32.9297,10.4518,62.6,63,99,8.05,overcast clouds,2022-08-10 22:48
663,San Lorenzo,PY,-25.3333,-57.5333,86,62,0,5.75,clear sky,2022-08-10 22:48
664,Aklavik,CA,68.2191,-135.0107,-2.2,55,20,11.5,few clouds,2022-08-10 22:48
665,Tokur,RU,53.1333,132.9,25.75,79,99,9.37,overcast clouds,2022-08-10 22:48
666,Nayagarh,IN,20.1333,85.1,73.24,85,1,1.05,clear sky,2022-08-10 22:48
667,Houma,US,29.5958,-90.7195,73.4,73,90,9.22,overcast clouds,2022-08-10 22:48
668,Acaponeta,MX,22.4964,-105.3594,88.59,31,48,8.72,scattered clouds,2022-08-10 22:48
669,Bukachacha,RU,52.9833,116.9167,19.89,39,58,5.1,broken clouds,2022-08-10 22:48
670,Malartic,CA,48.1335,-78.1328,68,45,75,9.22,broken clouds,2022-08-10 22:48
671,Mahajanga,MG,-15.7167,46.3167,77,94,20,3.44,few clouds,2022-08-10 22:48
672,Mut,TR,36.6439,33.4389,40.93,73,71,18.23,broken clouds,2022-08-10 22:48
673,Senanga,ZM,-16.1167,23.2667,67.57,49,16,7.38,few clouds,2022-08-10 22:48
674,Angoche,MZ,-16.2325,39.9086,76.17,88,100,5.59,light rain,2022-08-10 22:48
675,Minatitlan,MX,17.9833,-94.5167,96.8,32,1,16.11,clear sky,2022-08-10 22:48
676,Jalu,LY,29.0331,21.5482,58.73,27,64,8.79,broken clouds,2022-08-10 22:43
677,Ranong,TH,9.9658,98.6348,77.47,86,68,4.23,broken clouds,2022-08-10 22:48
